City,Lat,Lng,Max Temp,Humidity,Cloudiness,Wind Speed,Country,Date
Xianyang,34.3378,108.7026,21.0,78,0,4.47,CN,1610060864
Mmabatho,-25.85,25.6333,70.77,77,89,8.41,ZA,1610060864
East London,-33.0153,27.9116,70.5,81,0,16.93,ZA,1610060864
Barrow,71.2906,-156.7887,-11.2,70,40,4.61,US,1610060864
Necochea,-38.5473,-58.7368,64.0,84,24,12.03,AR,1610060864
Yol,32.1667,76.2,51.51,43,92,4.76,IN,1610060864
Iqaluit,63.7506,-68.5145,-20.0,69,1,2.3,CA,1610060865
Hilo,19.7297,-155.09,80.6,57,40,4.61,US,1610060865
Kavieng,-2.5744,150.7967,83.73,77,96,14.34,PG,1610060865
Busselton,-33.65,115.3333,79.0,35,70,5.99,AU,1610060865
Sur,22.5667,59.5289,66.4,48,0,20.74,OM,1610060865
Ushuaia,-54.8,-68.3,57.2,41,75,12.66,AR,1610060865
Kochevo,59.5994,54.3125,7.16,95,100,4.9,RU,1610060865
Mossamedes,-15.1961,12.1522,71.65,78,65,10.16,AO,1610060782
Bredasdorp,-34.5322,20.0403,68.0,73,31,4.61,ZA,1610060865
Yellowknife,62.456,-114.3525,1.4,78,75,5.75,CA,1610060865
Hamilton,39.1834,-84.5333,37.0,60,90,17.27,US,1610060592
Sawtell,-30.3833,153.1,64.4,94,75,12.66,AU,1610060866
Krasnosel'kup,65.7,82.4667,-12.51,87,54,17.13,RU,1610060866
Champerico,14.3,-91.9167,78.8,78,40,4.61,GT,1610060866
Sabha,27.0377,14.4283,62.62,33,89,5.97,LY,1610060866
Piaçabuçu,-10.4056,-36.4344,78.51,80,3,13.69,BR,1610060867
Finnsnes,69.2296,17.9811,10.4,79,75,4.76,NO,1610060867
Haines Junction,60.7522,-137.5108,15.48,93,100,1.57,CA,1610060867
Tondela,40.5167,-8.0833,36.0,75,56,4.0,PT,1610060867
Saskylakh,71.9167,114.0833,-12.28,89,97,8.03,RU,1610060867
Avarua,-21.2078,-159.775,84.2,74,75,12.66,CK,1610060867
Rutland,43.6167,-73.0162,26.6,80,90,6.91,US,1610060602
Mataura,-46.1927,168.8643,57.99,68,48,5.99,NZ,1610060868
Kapaa,22.0752,-159.319,78.8,65,20,9.22,US,1610060868
Arraial do Cabo,-22.9661,-42.0278,78.8,90,0,4.61,BR,1610060868
Tezu,27.9167,96.1667,59.68,42,2,3.29,IN,1610060868
Kuito,-12.3833,16.9333,60.76,98,100,5.88,AO,1610060868
Bambous Virieux,-20.3428,57.7575,77.0,73,40,5.75,MU,1610060868
Beyneu,45.3167,55.2,25.3,71,29,21.03,KZ,1610060868
Port Lincoln,-34.7333,135.8667,67.33,75,0,10.87,AU,1610060868
Santa Rosa,14.3122,121.1114,78.8,78,40,10.74,PH,1610060868
Lebu,-37.6167,-73.65,57.06,71,14,22.19,CL,1610060869
Amuntai,-2.4177,115.2494,72.75,95,100,1.14,ID,1610060869
Rocha,-34.4833,-54.3333,71.33,51,37,2.91,UY,1610060869
Punta Arenas,-53.15,-70.9167,55.4,58,75,20.71,CL,1610060869
Saint-Philippe,-21.3585,55.7679,77.0,69,0,5.75,RE,1610060869
Terrace,54.5163,-128.6035,33.8,100,90,0.4,CA,1610060637
Castro,-24.7911,-50.0119,66.02,95,98,4.92,BR,1610060869
Chegdomyn,51.1167,133.0167,-31.13,82,92,1.23,RU,1610060869
Tuktoyaktuk,69.4541,-133.0374,-9.4,77,20,10.36,CA,1610060870
Agadez,19.75,10.25,73.13,20,0,7.14,NE,1610060870
Thohoyandou,-22.9456,30.485,68.43,87,97,3.6,ZA,1610060870
Rikitea,-23.1203,-134.9692,78.53,70,100,5.95,PF,1610060870
Fort Nelson,58.8053,-122.7002,10.4,85,75,2.3,CA,1610060871
Bratsk,56.1325,101.6142,-5.8,77,40,8.95,RU,1610060871
Mar del Plata,-38.0023,-57.5575,66.2,82,75,10.36,AR,1610060865
San Patricio,28.017,-97.5169,69.8,22,20,12.66,US,1610060871
Leh,34.1667,77.5833,8.74,76,90,3.0,IN,1610060871
Houma,29.5958,-90.7195,54.0,66,90,9.22,US,1610060871
Hobart,-42.8794,147.3294,70.0,67,20,5.75,AU,1610060818
Nachingwea,-10.3833,38.7667,71.17,98,11,4.76,TZ,1610060871
Hofn,64.2539,-15.2082,28.89,88,99,10.92,IS,1610060871
Mahébourg,-20.4081,57.7,77.0,73,40,5.75,MU,1610060872
Nanortalik,60.1432,-45.2371,37.4,94,100,8.66,GL,1610060872
Tuatapere,-46.1333,167.6833,57.99,68,76,5.99,NZ,1610060872
Cape Town,-33.9258,18.4232,68.0,73,0,17.27,ZA,1610060775
Anzio,41.4853,12.6179,45.0,91,100,1.99,IT,1610060872
Faanui,-16.4833,-151.75,80.8,72,53,10.51,PF,1610060872
El Alto,-4.2714,-81.2147,69.37,81,63,16.11,PE,1610060872
Tabas,33.5959,56.9244,33.8,37,0,4.61,IR,1610060872
Oranjemund,-28.55,16.4333,61.56,91,8,10.6,NA,1610060872
Jamestown,42.097,-79.2353,28.0,86,90,5.75,US,1610060792
George Town,5.4112,100.3354,78.01,83,20,6.46,MY,1610060873
Saint Paul Harbor,57.79,-152.4072,39.2,93,90,6.91,US,1610060766
Carnarvon,-24.8667,113.6333,82.4,74,71,5.75,AU,1610060826
Bluff,-46.6,168.3333,57.99,68,69,5.99,NZ,1610060873
Esperance,-33.8667,121.9,60.8,82,0,19.57,AU,1610060873
Mārkāpur,15.7333,79.2833,68.29,90,16,1.05,IN,1610060873
Maceió,-9.6658,-35.7353,77.0,83,20,4.61,BR,1610060873
Bogalusa,30.791,-89.8487,50.0,76,90,9.22,US,1610060874
San Andrés,12.5847,-81.7006,80.6,78,75,6.91,CO,1610060874
San Cristobal,7.7669,-72.225,80.6,69,40,3.44,VE,1610060874
Hermanus,-34.4187,19.2345,69.01,76,51,8.77,ZA,1610060874
Ribeira Grande,38.5167,-28.7,57.43,69,25,22.95,PT,1610060874
Coquimbo,-29.9533,-71.3436,62.6,77,40,11.5,CL,1610060596
Cherskiy,68.75,161.3,-14.98,89,98,0.96,RU,1610060874
Port Alfred,-33.5906,26.891,66.99,90,0,1.01,ZA,1610060874
Bethel,41.3712,-73.414,30.99,59,1,9.22,US,1610060874
Kumul,42.8,93.45,6.49,64,12,1.81,CN,1610060875
Broome,42.2506,-75.833,28.0,80,90,6.91,US,1610060875
Zhuhai,22.2769,113.5678,46.4,76,40,28.77,CN,1610060875
Vaini,-21.2,-175.2,84.2,84,75,10.36,TO,1610060875
Kinablangan,7.6947,126.5503,78.31,81,100,4.21,PH,1610060875
Balkanabat,39.5108,54.3671,38.8,57,100,10.02,TM,1610060875
Bengkulu,-3.8004,102.2655,74.86,83,97,5.17,ID,1610060875
Asău,46.4333,26.4,35.01,56,99,4.0,RO,1610060876
Erzin,36.9559,36.2,54.0,62,100,5.01,TR,1610060876
Albany,42.6001,-73.9662,28.0,73,4,11.99,US,1610060826
Nikolskoye,59.7035,30.7861,24.8,86,40,13.42,RU,1610060876
Yar-Sale,66.8333,70.8333,-12.08,88,87,17.43,RU,1610060876
Atuona,-9.8,-139.0333,77.68,71,44,13.33,PF,1610060876
Rome,43.2128,-75.4557,27.0,74,90,9.22,US,1610060876
Winnemucca,40.973,-117.7357,44.6,45,1,6.91,US,1610060697
Norman Wells,65.282,-126.8329,-7.6,77,20,5.75,CA,1610060876
Pimenta Bueno,-11.6725,-61.1936,80.28,71,98,3.29,BR,1610060877
Port Blair,11.6667,92.75,79.59,81,6,8.48,IN,1610060877
Lüderitz,-26.6481,15.1594,69.71,55,21,16.91,NA,1610060877
Taksimo,56.3444,114.8794,-11.42,81,100,3.15,RU,1610060877
Vao,-22.6667,167.4833,79.56,86,94,20.56,NC,1610060877
Bloomingdale,27.8936,-82.2404,69.01,60,1,4.61,US,1610060877
Mandera,3.9366,41.867,77.2,31,0,7.56,KE,1610060877
Mahanoro,-19.9,48.8,75.24,89,22,2.59,MG,1610060877
Butaritari,3.0707,172.7902,81.55,82,12,20.4,KI,1610060877
Scarborough,54.2797,-0.4044,33.01,91,86,1.01,GB,1610060878
Kousséri,12.0769,15.0306,73.4,23,94,3.44,CM,1610060878
Camacha,33.0833,-16.3333,53.6,82,75,21.85,PT,1610060878
Khatanga,71.9667,102.5,0.55,93,100,16.13,RU,1610060878
Bonthe,7.5264,-12.505,79.21,84,97,7.54,SL,1610060878
Port Elizabeth,-33.918,25.5701,68.0,94,0,5.75,ZA,1610060878
Kedrovyy,56.1667,91.8167,-22.0,76,0,1.01,RU,1610060878
Khumalag,43.2403,44.4752,23.0,100,81,8.95,RU,1610060878
Lavrentiya,65.5833,-171.0,-12.12,84,3,5.21,RU,1610060879
Kysyl-Syr,63.8986,122.7617,-32.89,83,100,5.61,RU,1610060879
Zabid,14.1951,43.3152,73.42,65,0,6.44,YE,1610060589
Bongandanga,1.5,21.05,75.54,79,100,5.03,CD,1610060879
Lagoa,39.05,-27.9833,56.46,68,22,20.38,PT,1610060879
Okhotsk,59.3833,143.3,-21.53,78,44,11.61,RU,1610060879
Dikson,73.5069,80.5464,17.28,97,88,13.65,RU,1610060879
Esmeralda,21.8525,-78.1169,75.2,78,40,8.05,CU,1610060880
Montepuez,-13.1256,38.9997,70.68,97,12,2.71,MZ,1610060880
Ayan,56.45,138.1667,-20.34,74,96,8.5,RU,1610060880
Currais Novos,-6.2608,-36.5178,75.76,66,59,15.84,BR,1610060880
Bac Lieu,9.285,105.7244,76.37,79,75,14.34,VN,1610060880
Katsuura,35.1333,140.3,39.2,52,75,19.57,JP,1610060880
Laas,46.6166,10.7002,30.2,79,0,6.91,IT,1610060880
Celestún,20.8667,-90.4,75.29,80,85,12.86,MX,1610060880
Solnechnyy,50.7214,136.6319,-19.19,85,71,1.92,RU,1610060881
Lorengau,-2.0226,147.2712,84.78,72,82,6.08,PG,1610060881
Bandarbeyla,9.4942,50.8122,73.45,69,30,19.57,SO,1610060881
São Filipe,14.8961,-24.4956,75.07,78,0,7.9,CV,1610060881
Cayenne,4.9333,-52.3333,75.2,100,0,13.71,GF,1610060881
Lauria,40.0465,15.8358,51.55,80,93,9.89,IT,1610060881
Upernavik,72.7868,-56.1549,-3.14,91,100,5.91,GL,1610060881
Baruun-Urt,46.6806,113.2792,-15.11,83,5,8.75,MN,1610060881
Yavaros,26.7,-109.5167,75.65,32,0,14.14,MX,1610060882
Saint-Augustin,51.226,-58.6502,38.21,82,100,23.85,CA,1610060882
High Level,58.5169,-117.136,24.8,86,40,5.75,CA,1610060882
Kenora,49.8167,-94.4337,26.6,74,40,9.22,CA,1610060815
Nueva Gerona,21.8833,-82.8,75.81,77,35,7.61,CU,1610060882
Farīdpur,23.6,89.8333,68.0,77,57,2.82,BD,1610060882
Akhtanizovskaya,45.32,37.1,55.4,67,100,17.9,RU,1610060882
Colchester,51.8892,0.9042,30.99,94,96,8.19,GB,1610060883
Ust-Maya,60.4167,134.5333,-32.94,83,100,3.56,RU,1610060883
Narsaq,60.9167,-46.05,35.6,93,90,2.3,GL,1610060883
Saldanha,-33.0117,17.9442,62.6,77,0,8.05,ZA,1610060883
Mogadishu,2.0371,45.3438,75.7,77,25,21.97,SO,1610060883
Malanje,-9.5402,16.341,62.96,92,94,4.76,AO,1610060883
Hasaki,35.7333,140.8333,30.0,64,40,3.44,JP,1610060883
New Norfolk,-42.7826,147.0587,70.0,67,8,1.01,AU,1610060884
Ponta do Sol,32.6667,-17.1,55.4,82,75,21.85,PT,1610060884
Cabedelo,-6.9811,-34.8339,80.6,78,20,10.36,BR,1610060884
Qaqortoq,60.7167,-46.0333,35.6,93,90,2.3,GL,1610060884
Amsterdam,52.374,4.8897,37.99,93,75,4.61,NL,1610060884
Qaanaaq,77.484,-69.3632,-15.81,71,20,7.67,GL,1610060884
Provideniya,64.3833,-173.3,-7.47,82,8,3.8,RU,1610060885
Airai,-8.9266,125.4092,65.14,100,100,2.04,TL,1610060885
The Valley,18.217,-63.0578,78.8,78,20,3.44,AI,1610060885
Bosaso,11.2842,49.1816,71.6,58,1,6.69,SO,1610060607
Osvaldo Cruz,-21.7967,-50.8786,75.61,71,99,7.0,BR,1610060885
Ilulissat,69.2167,-51.1,14.0,73,75,20.71,GL,1610060885
Barranca,-10.75,-77.7667,72.54,75,48,7.61,PE,1610060885
Petropavl,54.8753,69.1628,-16.17,89,95,3.15,KZ,1610060885
Ostrovnoy,68.0531,39.5131,10.87,94,5,9.53,RU,1610060886
Aldergrove,49.058,-122.4709,45.0,81,75,4.61,CA,1610060886
Pangnirtung,66.1451,-65.7125,-22.0,76,20,4.61,CA,1610060886
Itarema,-2.9248,-39.9167,80.4,77,10,14.54,BR,1610060886
Zimovniki,47.1483,42.4633,40.35,89,100,14.56,RU,1610060886
Pleasanton,37.6624,-121.8747,59.0,62,1,12.66,US,1610060752
Kerema,-7.9631,145.7785,83.97,72,99,6.8,PG,1610060886
Nacala,-14.5428,40.6728,79.18,88,92,5.12,MZ,1610060886
Kudat,6.8837,116.8477,75.2,100,40,1.14,MY,1610060886
Cidreira,-30.1811,-50.2056,76.05,88,100,8.43,BR,1610060887
Souillac,-20.5167,57.5167,77.0,73,40,5.75,MU,1610060887
Galle,6.0367,80.217,77.13,84,45,2.42,LK,1610060887
Rochester,43.1548,-77.6156,30.99,80,90,4.61,US,1610060515
Phalodi,27.1333,72.3667,51.42,60,0,5.77,IN,1610060887
Mabaruma,8.2,-59.7833,76.66,88,100,4.43,GY,1610060887
Puerto del Rosario,28.5004,-13.8627,69.8,78,40,21.85,ES,1610060668
Te Anau,-45.4167,167.7167,56.21,65,74,1.72,NZ,1610060888
Panzhihua,26.5851,101.7128,45.32,59,21,2.71,CN,1610060888
Biltine,14.5333,20.9167,70.54,22,0,12.3,TD,1610060888
Kirakira,-10.4544,161.9205,86.67,64,100,4.12,SB,1610060888
Mezhdurechenskiy,59.6,65.9333,-1.59,91,100,8.79,RU,1610060888
Sechura,-5.5569,-80.8222,76.35,62,51,17.83,PE,1610060888
Kaitangata,-46.2817,169.8464,57.0,59,71,8.01,NZ,1610060888
Santiago del Estero,-27.7951,-64.2615,86.0,59,10,1.01,AR,1610060889
Grindavik,63.8424,-22.4338,32.0,100,90,21.85,IS,1610060889
Praia,14.9215,-23.5087,73.4,78,0,14.97,CV,1610060889
Ranong,9.9658,98.6348,75.97,81,46,5.53,TH,1610060889
Torbay,47.6666,-52.7314,42.8,100,90,20.71,CA,1610060889
Stykkisholmur,65.0757,-22.7297,32.81,95,100,27.04,IS,1610060889
Bősárkány,47.6882,17.25,30.99,100,40,2.3,HU,1610060889
Pisco,-13.7,-76.2167,72.0,78,0,23.02,PE,1610060682
Mackay,-21.15,149.2,77.0,100,90,10.36,AU,1610060890
Huarmey,-10.0681,-78.1522,73.44,72,55,9.22,PE,1610060890
Hithadhoo,-0.6,73.0833,82.58,80,100,19.46,MV,1610060890
Sitka,57.0531,-135.33,48.2,49,75,19.57,US,1610060890
Velyka Mykhaylivka,47.0794,29.8514,37.62,78,9,8.97,UA,1610060890
Três Lagoas,-20.7511,-51.6783,77.49,79,100,0.54,BR,1610060891
Pochutla,15.7432,-96.4661,82.0,69,40,11.5,MX,1610060891
Blăgeşti,46.6833,26.65,39.2,70,0,3.44,RO,1610060891
Hong Kong,22.2855,114.1577,48.0,68,100,4.0,HK,1610060655
Nemuro,43.3236,145.575,27.45,95,100,28.5,JP,1610060891
Bilibino,68.0546,166.4372,-14.4,86,100,1.21,RU,1610060891
Outjo,-20.1167,16.15,71.17,75,100,6.6,NA,1610060891
Harrisburg,40.2737,-76.8844,37.4,52,20,8.05,US,1610060756
Jutaí,-5.1833,-68.9,75.83,93,90,0.76,BR,1610060891
Chokurdakh,70.6333,147.9167,-12.3,90,98,6.93,RU,1610060891
Calvinia,-31.4707,19.776,70.79,37,0,4.7,ZA,1610060892
Sinnamary,5.3833,-52.95,78.53,87,100,11.54,GF,1610060892
San Miguel de Tucumán,-26.8241,-65.2226,82.4,57,40,5.75,AR,1610060788
Chapais,49.7834,-74.8492,12.2,85,90,9.22,CA,1610060892
Mount Gambier,-37.8333,140.7667,64.4,72,0,12.66,AU,1610060892
Mount Isa,-20.7333,139.5,86.0,21,1,13.8,AU,1610060892
Lyubech,51.7026,30.6569,35.22,99,100,5.59,UA,1610060892
Ubari,26.5921,12.7805,61.9,35,97,3.78,LY,1610060892
Fairbanks,64.8378,-147.7164,3.2,85,75,1.63,US,1610060780
Mariehamn,60.0973,19.9348,32.0,86,90,11.5,AX,1610060893
Juquitiba,-23.9317,-47.0683,77.0,65,40,10.36,BR,1610060893
Nishihara,26.1842,127.7558,53.6,66,90,12.66,JP,1610060893
Buin,-33.7333,-70.75,82.99,34,0,16.11,CL,1610060893
Klyuchi,52.2667,79.1667,-18.31,85,88,3.27,RU,1610060893
Bonoua,5.2741,-3.595,80.6,83,20,4.61,CI,1610060893
Luganville,-15.5333,167.1667,87.31,65,86,3.96,VU,1610060893
Tasiilaq,65.6145,-37.6368,21.2,86,100,13.8,GL,1610060894
Phonhong,18.5007,102.4166,63.9,81,89,2.62,LA,1610060894
Ciudad Bolivar,8.1222,-63.5497,80.94,72,71,12.71,VE,1610060894
Port Shepstone,-30.7414,30.455,69.4,80,14,11.88,ZA,1610060894
Tías,28.9611,-13.645,68.0,88,75,9.22,ES,1610060894
Kuytun,54.3419,101.5036,-6.48,87,0,8.23,RU,1610060894
Baykit,61.67,96.37,-15.12,80,5,4.61,RU,1610060894
Manjeshwar,12.7194,74.8861,75.2,88,75,4.61,IN,1610060894
Nizhniy Bestyakh,61.9594,129.9086,-43.6,60,100,2.24,RU,1610060895
Minas,-34.3759,-55.2377,77.0,50,0,6.91,UY,1610060895
Iaciara,-14.0958,-46.6317,77.65,69,78,0.94,BR,1610060895
Ballina,-28.8667,153.5667,73.4,68,90,13.8,AU,1610060787
Yulara,-25.2406,130.9889,75.2,20,0,11.5,AU,1610060895
Manbij,36.5281,37.9549,39.2,75,0,5.95,SY,1610060895
Oussouye,12.485,-16.5469,78.8,89,0,4.61,SN,1610060895
Jumla,29.2747,82.1838,37.72,49,0,5.01,NP,1610060895
Miles City,46.4083,-105.8406,35.6,55,75,3.44,US,1610060895
Provost,52.3501,-110.2683,33.8,60,0,3.44,CA,1610060896
Hauterive,46.0901,3.4459,33.8,93,90,2.3,FR,1610060896
Cradock,-32.1642,25.6192,75.97,42,40,2.86,ZA,1610060896
Venice,27.0998,-82.4543,68.0,88,1,9.22,US,1610060653
Caraquet,47.7941,-64.9386,33.8,64,100,6.91,CA,1610060896
Datong,40.0936,113.2914,-1.53,74,1,8.75,CN,1610060896
Baharly,38.4362,57.4316,31.91,81,0,12.15,TM,1610060896
Methóni,36.8197,21.7049,57.0,100,57,1.14,GR,1610060897
Lata,40.1629,-8.3327,42.01,64,61,7.0,PT,1610060897
Ekazhevo,43.2122,44.8231,23.0,100,62,8.95,RU,1610060897
Muros,42.7762,-9.0603,37.0,90,1,1.01,ES,1610060897
Kruisfontein,-34.0033,24.7314,70.0,88,24,1.01,ZA,1610060898
Puerto Ayora,-0.7393,-90.3518,82.4,61,0,23.02,EC,1610060898
Najrān,17.4924,44.1277,55.4,41,0,1.12,SA,1610060898
Tūkrah,32.5341,20.5791,60.96,66,24,8.23,LY,1610060898
Denpasar,-8.65,115.2167,77.0,100,75,16.11,ID,1610060615
Bubaque,11.2833,-15.8333,79.63,80,0,15.82,GW,1610060898
Cervignano del Friuli,45.8211,13.3381,37.99,100,90,3.44,IT,1610060899
Pilar,-9.5972,-35.9567,77.0,83,20,4.61,BR,1610060899
Bagacay,12.9821,124.1415,77.99,91,100,18.48,PH,1610060899
Saint Anthony,45.0205,-93.218,24.8,80,90,3.44,US,1610060899
Pacific Grove,36.6177,-121.9166,63.0,51,1,6.6,US,1610060861
Pevek,69.7008,170.3133,-9.47,91,100,3.87,RU,1610060899
Nuuk,64.1835,-51.7216,17.6,79,75,18.41,GL,1610060900
Saint George,37.1041,-113.5841,55.99,25,1,0.81,US,1610060900
Lompoc,34.6391,-120.4579,69.8,30,1,11.5,US,1610060900
Grand Gaube,-20.0064,57.6608,73.0,79,56,3.0,MU,1610060900
Northam,51.0333,-4.2167,37.0,90,100,3.0,GB,1610060900
Uauá,-9.8414,-39.4817,81.95,40,64,7.31,BR,1610060900
Poum,-20.2333,164.0167,82.85,79,44,11.23,NC,1610060900
Vanavara,60.34,102.2797,-1.98,91,100,8.3,RU,1610060900
Yining,29.0361,114.5636,26.62,71,66,2.46,CN,1610060900
Carauari,-4.8828,-66.8958,75.06,95,99,3.02,BR,1610060901
Morro Bay,35.3658,-120.8499,66.0,44,73,5.99,US,1610060901
Kupang,-10.1667,123.5833,75.2,100,20,2.3,ID,1610060901
Barra de Tecoanapa,16.5167,-98.75,81.03,69,75,5.91,MX,1610060901
Steinbach am Taunus,50.1667,8.5667,37.99,86,40,12.66,DE,1610060901
São João da Barra,-21.6403,-41.0511,76.91,87,46,17.49,BR,1610060901
Oiã,40.5426,-8.5386,39.99,63,74,5.06,PT,1610060901
Plátanos,37.6667,21.6167,59.0,77,57,8.05,GR,1610060901
Madison,34.7334,-86.5667,43.0,81,90,11.01,US,1610060901
Ulagan,50.6321,87.9563,-7.56,70,72,2.53,RU,1610060902
Port Macquarie,-31.4333,152.9167,66.2,88,75,10.36,AU,1610060902
Mae Ramat,16.984,98.5166,73.0,73,100,1.01,TH,1610060902
Alofi,-19.0595,-169.9187,86.0,70,75,10.36,NU,1610060902
Guiratinga,-16.3494,-53.7583,75.6,79,98,2.59,BR,1610060902
Chui,-33.6971,-53.4616,69.69,82,33,8.59,UY,1610060902
Yashkul',46.1711,45.3435,35.92,92,100,7.29,RU,1610060902
Erenhot,43.6475,111.9767,-12.12,86,0,10.4,CN,1610060903
Los Llanos de Aridane,28.6585,-17.9182,68.0,64,20,19.57,ES,1610060903
Okha,53.5739,142.9478,-19.52,86,91,13.85,RU,1610060903
Novoil'insk,51.6829,108.7143,-0.69,87,100,10.29,RU,1610060903
Placerville,38.7296,-120.7986,55.99,50,1,3.44,US,1610060904
Nouadhibou,20.931,-17.0347,68.0,94,75,3.44,MR,1610060904
Kiryat Gat,31.61,34.7642,60.01,49,85,3.0,IL,1610060904
Eqbālīyeh,35.3022,51.5358,32.0,74,0,6.91,IR,1610060821
Mariental,-24.6333,17.9667,83.77,37,74,7.45,NA,1610060904
Ailigandí,9.2333,-78.0167,78.85,82,71,8.84,PA,1610060904
Waingapu,-9.6567,120.2641,80.73,75,100,1.54,ID,1610060904
San Quintín,30.4833,-115.95,66.09,52,1,10.76,MX,1610060904
Salalah,17.0151,54.0924,71.6,28,0,8.05,OM,1610060904
Puerto Ayacucho,5.6639,-67.6236,77.07,88,77,4.18,VE,1610060905
Tahe,52.3333,124.7333,-18.54,83,100,4.34,CN,1610060905
Cabo San Lucas,22.8909,-109.9124,79.0,46,1,12.66,MX,1610060905
Skibbereen,51.55,-9.2667,33.8,93,40,9.22,IE,1610060905
Cockburn Town,21.4612,-71.1419,77.0,69,40,5.75,TC,1610060900
Ordzhonīkīdze,52.4411,61.7408,-5.66,86,91,8.41,KZ,1610060905
El Salvador,13.8333,-88.9167,84.2,73,20,9.22,SV,1610060905
Fortuna,40.5982,-124.1573,57.99,58,20,18.41,US,1610060906
Olafsvik,64.8945,-23.7142,40.6,93,100,27.85,IS,1610060906
Palana,59.1167,159.9667,-10.14,85,11,3.4,RU,1610060906
Kahului,20.8947,-156.47,84.2,51,40,18.41,US,1610060906
Ixtapa,20.7,-105.2,73.4,78,90,13.8,MX,1610060906
Yaan,7.3833,8.5667,81.84,30,20,8.68,NG,1610060906
Waddān,29.1614,16.139,63.16,36,89,5.06,LY,1610060906
Sistranda,63.7256,8.834,23.0,74,0,21.85,NO,1610060868
Taoudenni,22.6783,-3.9836,76.57,21,100,5.95,ML,1610060907
Stornoway,58.2093,-6.3865,33.8,69,20,14.97,GB,1610060907
Jalu,29.0331,21.5482,54.03,69,77,2.01,LY,1610060907
Russell,32.3502,-85.1999,44.6,81,90,8.05,US,1610060907
Ancud,-41.8697,-73.8203,61.0,58,90,11.5,CL,1610060907
Krasnystaw,50.9846,23.1742,32.0,100,90,10.36,PL,1610060907
Srednekolymsk,67.45,153.6833,-22.0,85,71,2.19,RU,1610060907
Warrington,53.3925,-2.5802,35.01,100,90,4.61,GB,1610060907
Catalina,32.5056,-110.9211,69.01,12,1,1.01,US,1610060907
Capitão Poço,-1.7464,-47.0594,75.88,92,87,4.54,BR,1610060908
Grand-Lahou,5.1367,-5.0242,79.34,85,35,8.57,CI,1610060908
Pionerskiy,54.9508,20.2275,33.8,93,90,6.71,RU,1610060908
Pinos,22.3,-101.5667,62.6,34,90,10.36,MX,1610060908
Adrar,20.5022,-10.0711,75.15,27,49,6.76,MR,1610060908
Lebanon,36.2081,-86.2911,39.2,70,90,8.05,US,1610060908
Gizo Government Station,-8.103,156.8419,85.21,68,43,10.0,SB,1610060908
Dwārka,22.2394,68.9678,66.78,50,0,16.13,IN,1610060908
Talnakh,69.4865,88.3972,-10.41,89,100,13.87,RU,1610060908
Coahuayana Viejo,18.7333,-103.6833,80.6,54,20,11.5,MX,1610060909
Sørland,67.667,12.6934,32.0,69,75,10.36,NO,1610060909
Portland,45.5234,-122.6762,53.01,71,1,9.22,US,1610060713
Broken Hill,-31.95,141.4333,75.2,33,0,6.91,AU,1610060909
Pareora,-44.4871,171.2132,60.01,75,97,8.01,NZ,1610060909
Flin Flon,54.7682,-101.865,30.2,74,20,8.05,CA,1610060909
Kingsport,36.5484,-82.5618,39.99,70,90,4.61,US,1610060909
Daru,-9.0763,143.2092,80.85,87,100,8.79,PG,1610060910
Rincon,32.296,-81.2354,57.2,67,90,13.8,US,1610060910
Bonnyville,54.2668,-110.735,32.0,64,1,4.61,CA,1610060910
Yalutorovsk,56.6536,66.3006,-5.01,87,100,10.69,RU,1610060910
Toyohashi,34.7667,137.3833,30.0,45,46,7.0,JP,1610060910
Longyearbyen,78.2186,15.6401,30.2,74,75,29.93,SJ,1610060885
Samarai,-10.6167,150.6667,85.23,74,97,12.71,PG,1610060910
Pak Chong,14.708,101.4161,73.99,75,56,9.22,TH,1610060910
Vestmannaeyjar,63.4427,-20.2734,36.63,92,100,14.23,IS,1610060910
Atar,20.5169,-13.0499,69.82,35,0,1.54,MR,1610060911
Fukuechō,32.6881,128.8419,35.02,88,100,22.46,JP,1610060911
Kutum,14.2,24.6667,61.38,30,0,13.42,SD,1610060911
Sovetskiy,61.3614,63.5842,-3.78,92,100,5.17,RU,1610060618
Kavaratti,10.5669,72.642,81.43,72,66,1.77,IN,1610060911
La Ronge,55.1001,-105.2842,32.0,64,0,4.61,CA,1610060911
Vagay,57.9375,69.0217,-8.09,90,100,6.58,RU,1610060911
Dunedin,-45.8742,170.5036,57.42,62,32,13.15,NZ,1610060911
Udachny,66.4167,112.4,-1.21,90,100,17.02,RU,1610060912
Muroto-misakicho,33.2833,134.15,21.2,79,20,5.75,JP,1610060912
Santa Fe,-31.6333,-60.7,88.0,25,0,1.01,AR,1610060829
Angul,20.85,85.1,66.43,68,46,0.72,IN,1610060913
Kralendijk,12.15,-68.2667,80.6,78,40,13.8,BQ,1610060913
Gulmarg,34.049,74.3921,18.91,85,1,1.52,IN,1610060913
Taltal,-25.4,-70.4833,68.86,65,22,5.3,CL,1610060913
Havre-St-Pierre,50.2334,-63.5986,29.14,91,100,13.71,CA,1610060914
Māngrol,21.1167,70.1167,63.72,50,0,16.49,IN,1610060914
Sangmélima,2.9333,11.9833,69.84,89,78,4.09,CM,1610060914
Araripina,-7.5761,-40.4983,77.74,50,34,5.95,BR,1610060914
Kushiro,42.975,144.3747,24.8,80,75,14.97,JP,1610060766
Itoman,26.1247,127.6694,53.6,76,75,21.85,JP,1610060914
Alexandria,31.2156,29.9553,62.6,88,28,4.61,EG,1610060914
Sobolevo,54.4299,31.8996,30.99,98,99,12.62,RU,1610060914
Banyo,6.75,11.8167,66.78,24,82,3.83,CM,1610060915
Atambua,-9.1061,124.8925,77.43,84,100,2.66,ID,1610060915
Townsville,-19.25,146.8,82.4,83,75,11.5,AU,1610060915
Aleksandrovsk-Sakhalinskiy,50.8975,142.1561,-11.78,87,99,5.35,RU,1610060915
Dingle,10.9995,122.6711,75.78,92,99,7.92,PH,1610060903
Padang,-0.9492,100.3543,78.67,75,100,4.92,ID,1610060915
Klaksvík,62.2266,-6.589,30.2,64,75,12.66,FO,1610060915
Rawson,-43.3002,-65.1023,61.99,49,0,15.19,AR,1610060915
Glendive,47.1053,-104.7125,36.0,64,90,5.75,US,1610060666
Dublin,37.7021,-121.9358,59.0,62,1,12.66,US,1610060916
Thompson,55.7435,-97.8558,21.2,100,40,5.75,CA,1610060900
Sayyan,15.1718,44.3244,39.74,68,0,4.83,YE,1610060916
Balkhash,46.844,74.9804,-10.32,87,13,4.97,KZ,1610060916
Fort Abbas,29.1925,72.8536,52.92,61,0,1.19,PK,1610060916
Jieshou,33.2634,115.3611,19.42,56,17,6.82,CN,1610060916
Dolisie,-4.1997,12.6739,71.31,92,100,1.23,CG,1610060917
Phalombe,-15.8064,35.6507,70.63,91,100,2.82,MW,1610060917
Benghazi,32.1167,20.0667,63.64,64,65,11.9,LY,1610060917
Katobu,-4.9408,122.5276,79.16,86,100,3.85,ID,1610060917
Leningradskiy,69.3833,178.4167,-9.81,85,100,6.8,RU,1610060917
Touros,-5.1989,-35.4608,78.8,78,20,10.36,BR,1610060917
Synya,65.3718,58.0387,-7.31,91,86,2.35,RU,1610060917
Portales,34.1862,-103.3344,55.99,15,1,3.44,US,1610060917
Beloha,-25.1667,45.05,74.28,91,54,2.04,MG,1610060918
Camaná,-16.6228,-72.7111,72.84,71,62,5.37,PE,1610060918
West Des Moines,41.572,-93.7453,30.99,86,90,8.05,US,1610060918
Huangzhou,30.45,114.8,19.4,63,0,2.24,CN,1610060918
Odienné,9.51,-7.5692,75.85,28,0,0.78,CI,1610060918
Korla,41.7597,86.1469,13.17,84,78,5.61,CN,1610060918
Lieksa,63.3167,30.0167,11.43,95,93,7.29,FI,1610060918
Laurel,39.0993,-76.8483,43.0,75,1,5.48,US,1610060705
Kargil,34.5667,76.1,2.86,78,100,1.39,IN,1610060918
Jacareacanga,-6.2222,-57.7528,78.67,78,31,2.44,BR,1610060919
Qujing,25.4833,103.7833,29.86,90,100,5.82,CN,1610060919
Viedma,-40.8135,-62.9967,64.0,63,22,1.01,AR,1610060919
Balikpapan,-1.2675,116.8289,77.0,94,40,4.61,ID,1610060919
Henties Bay,-22.116,14.2845,68.0,88,71,4.23,NA,1610060919
Stepnyak,52.8339,70.7803,-17.95,86,4,2.98,KZ,1610060919
Weligama,5.9667,80.4167,76.19,87,57,2.82,LK,1610060919
Bowen,-20.0167,148.2333,77.0,94,90,8.05,AU,1610060919
Pandan,14.0453,124.1694,78.46,86,98,20.27,PH,1610060920
Cabinda,-5.55,12.2,76.75,87,100,4.92,AO,1610060707
Rafaela,-31.2503,-61.4867,87.01,13,0,6.49,AR,1610060920
Kang,-23.6752,22.7876,70.39,73,100,7.65,BW,1610060920
Okakarara,-20.5833,17.4333,71.98,70,99,9.15,NA,1610060921
Barguzin,53.6167,109.6167,-5.42,85,98,2.89,RU,1610060921
Rørvik,64.8621,11.2373,24.35,92,96,18.28,NO,1610060921
Caramay,10.1815,119.236,78.13,84,100,6.35,PH,1610060921
Arrondissement de Bastia,42.6667,9.3333,46.99,71,90,6.91,FR,1610060921
Turinsk,58.0458,63.696,-0.26,92,100,10.13,RU,1610060922
Ingham,42.6,-84.3833,33.01,80,90,10.36,US,1610060922
Buala,-8.145,159.5921,81.86,78,94,6.35,SB,1610060904
Maïné Soroa,13.2114,12.0241,74.07,20,54,9.91,NE,1610060922
Guangyuan,32.442,105.823,30.99,37,0,8.01,CN,1610060922
Progreso,21.2833,-89.6667,75.99,83,75,8.05,MX,1610060922
Alekseyevka,50.6309,38.6903,37.78,95,100,16.22,RU,1610060922
Salinópolis,-0.6136,-47.3561,81.32,79,15,11.77,BR,1610060922
Terrace Bay,48.7834,-87.1,24.8,86,90,4.61,CA,1610060923
Yuancheng,36.652,107.7896,4.77,55,0,10.65,CN,1610060923
Yeppoon,-23.1333,150.7333,80.6,69,90,13.8,AU,1610060923
Forestville,38.8451,-76.875,43.0,56,1,4.61,US,1610060716
Lebedyan',53.0194,39.1664,34.09,96,100,9.71,RU,1610060923
Prince Rupert,54.3161,-130.3201,44.6,81,90,14.97,CA,1610060923
Clyde River,70.4692,-68.5914,-14.8,64,75,2.3,CA,1610060923
Calama,-22.4667,-68.9333,68.0,32,0,26.46,CL,1610060825
Mareeba,-17.0,145.4333,88.0,79,40,3.44,AU,1610060924
Bulawayo,-20.15,28.5833,66.18,90,100,10.25,ZW,1610060924
Deputatsky,69.3,139.9,-15.32,89,100,4.59,RU,1610060924
Catherinas Lust,6.4,-57.6,78.49,86,90,12.44,GY,1610060925
Griffith,41.5284,-87.4237,36.0,60,90,8.05,US,1610060925
Vila Velha,-20.3297,-40.2925,78.8,78,0,16.11,BR,1610060809
Goderich,43.7501,-81.7165,28.4,80,96,9.22,CA,1610060925
Pundaguitan,6.3711,126.1689,79.88,81,100,5.93,PH,1610060925
Puro,12.4841,123.3827,77.58,90,100,15.7,PH,1610060925
Vakhrushev,48.9833,142.9667,-4.7,86,50,6.91,RU,1610060925
Bud,39.447,-86.1758,35.01,74,100,8.66,US,1610060925
Vágur,61.4732,-6.8119,32.97,87,89,18.99,FO,1610060926
San Jose,37.3394,-121.895,61.0,62,75,3.44,US,1610060685
Sencha,50.2548,33.346,39.94,92,100,12.8,UA,1610060926
Shilka,51.85,116.0333,-17.0,82,27,2.86,RU,1610060926
Bârna,45.7167,22.05,36.0,93,100,3.44,RO,1610060926
Esil,51.9556,66.4042,-16.98,80,6,2.86,KZ,1610060926
San Miguel de Cozumel,20.5083,-86.9458,77.0,83,75,0.29,MX,1610060916
Tautira,-17.7333,-149.15,82.4,69,40,3.44,PF,1610060927
Himimachi,36.85,136.9833,30.99,88,100,1.57,JP,1610060927
Kol'chugino,56.3,39.3833,15.69,97,87,4.21,RU,1610060927
Vila Franca do Campo,37.7167,-25.4333,53.6,62,40,16.11,PT,1610060927
Hambantota,6.1241,81.1185,73.4,100,0,1.14,LK,1610060927
Ambilobe,-13.2,49.05,73.47,90,18,1.9,MG,1610060927
Alamosa,37.4695,-105.87,37.4,32,1,3.44,US,1610060927
Pedasí,7.5333,-80.0333,79.41,78,44,6.24,PA,1610060927
Lagunas,-5.2269,-75.6753,72.18,97,100,1.39,PE,1610060927
Suzun,53.7841,82.3116,-10.62,90,93,2.68,RU,1610060928
Bom Jesus,-9.0744,-44.3586,80.38,39,5,0.98,BR,1610060928
Nhulunbuy,-12.2333,136.7667,84.2,84,69,6.91,AU,1610060928
Sehore,23.2,77.0833,65.98,54,79,6.62,IN,1610060928
Calapi,11.9435,125.0206,74.43,95,95,2.89,PH,1610060928
Talcahuano,-36.7167,-73.1167,68.0,49,0,16.11,CL,1610060715
Severo-Kuril'sk,50.6789,156.125,20.3,82,50,6.98,RU,1610060929
Jackson,42.4165,-122.8345,44.6,70,20,3.44,US,1610060929
Coyhaique,-45.5752,-72.0662,55.4,54,75,3.44,CL,1610060929
Murgūd,16.4,74.2,69.55,89,69,5.77,IN,1610060929
Thaba-Tseka,-29.522,28.6084,55.29,67,1,1.9,LS,1610060929
Tifton,31.4505,-83.5085,53.6,94,90,11.5,US,1610060929
Manta,-0.95,-80.7333,80.6,74,40,12.66,EC,1610060929
Mnogovershinnyy,53.9353,139.9242,-29.13,81,39,4.27,RU,1610060930
Kimbe,-5.5502,150.1429,85.95,71,100,1.66,PG,1610060930
Sumbe,-11.2061,13.8437,76.21,73,99,1.16,AO,1610060930
Ahipara,-35.1667,173.1667,63.54,93,100,2.19,NZ,1610060930
Wawa,9.9022,4.4192,78.78,18,34,1.77,NG,1610060930
Vanimo,-2.6741,141.3028,80.74,82,99,3.38,PG,1610060930
Kampong Cham,11.9934,105.4635,70.41,71,0,8.81,KH,1610060930
Lumeje,-11.55,20.7833,65.19,95,100,6.67,AO,1610060931
Tiksi,71.6872,128.8694,-14.04,89,100,18.48,RU,1610060931
Dauphin,51.1494,-100.0502,32.74,96,100,4.68,CA,1610060931
Tokur,53.1333,132.9,-37.08,84,92,1.43,RU,1610060931
Avera,33.194,-82.5271,44.6,77,90,6.91,US,1610060931
Angoche,-16.2325,39.9086,79.66,88,87,6.17,MZ,1610060931
São Gabriel da Cachoeira,-0.1303,-67.0892,74.43,97,100,2.04,BR,1610060931
Sulangan,11.1373,123.7228,80.13,80,100,7.18,PH,1610060931
Nome,64.5011,-165.4064,5.0,72,90,8.05,US,1610060932
Dalby,-27.1833,151.2667,66.0,93,100,5.01,AU,1610060932
Kirsanov,52.6549,42.7224,33.46,98,100,8.43,RU,1610060932
Lakselv,70.0513,24.9718,14.0,73,48,18.41,NO,1610060932
Petropavlovsk-Kamchatskiy,53.0452,158.6483,-2.2,65,0,8.95,RU,1610060932
Maniitsoq,65.4167,-52.9,7.83,84,0,12.57,GL,1610060932
Baculin,7.4525,126.5842,78.76,78,100,3.27,PH,1610060932
Ocós,14.5094,-92.1933,82.4,74,40,6.91,GT,1610060932
Serpa,37.9458,-7.5975,42.8,75,0,11.5,PT,1610060933
Yatou,37.15,122.3833,13.21,94,81,17.13,CN,1610060933
Buta,2.7858,24.73,71.35,65,34,2.19,CD,1610060933
Port Hawkesbury,45.6169,-61.3485,36.0,93,90,23.02,CA,1610060933
La Cruz,23.9167,-106.9,71.01,84,82,5.01,MX,1610060933
Beruwala,6.4788,79.9828,78.35,84,56,3.98,LK,1610060933
Mahon,39.8885,4.2658,44.6,76,0,18.41,ES,1610060933
Alta Floresta,-9.8756,-56.0861,76.59,80,100,1.79,BR,1610060933
Codrington,-38.2667,141.9667,65.88,65,0,9.42,AU,1610060934
Bahía Blanca,-38.7196,-62.2724,70.07,70,12,16.22,AR,1610060934
Río Gallegos,-51.6226,-69.2181,68.0,26,20,32.21,AR,1610060697
Karratha,-20.7377,116.8463,85.8,64,44,2.64,AU,1610060934
Merritt Island,28.5392,-80.672,69.8,72,20,5.75,US,1610060934
Husavik,66.0449,-17.3389,28.4,43,0,20.71,IS,1610060934
Vila do Maio,15.1333,-23.2167,73.4,78,0,14.97,CV,1610060934
Mitsamiouli,-11.3847,43.2844,81.09,81,41,11.61,KM,1610060934
Muborak,39.2553,65.1528,20.46,84,0,6.26,UZ,1610060934
Santa Maria,-29.6842,-53.8069,86.0,39,20,6.91,BR,1610060711
Nizwá,22.9333,57.5333,49.77,50,0,11.97,OM,1610060935
Kamenka,51.3223,42.7678,35.01,97,100,1.99,RU,1610060935
Murgab,37.4966,61.9714,21.2,86,0,4.61,TM,1610060935
Tieli,46.95,128.05,-25.71,86,100,4.18,CN,1610060935
Kumba,4.6363,9.4469,73.62,92,69,1.1,CM,1610060723
Voznesen'ye,61.0106,35.4781,11.71,95,100,5.41,RU,1610060935
Batemans Bay,-35.7167,150.1833,66.0,84,96,3.0,AU,1610060935
Petatlán,17.5167,-101.2667,84.2,74,20,4.83,MX,1610060935
Chhor,25.5167,69.7667,54.86,46,0,6.78,PK,1610060935
Baghdad,33.3406,44.4009,41.0,65,61,2.3,IQ,1610060751
Pimentel,-6.8367,-79.9342,71.6,78,0,20.71,PE,1610060936
Imeni Poliny Osipenko,52.4201,136.4853,-27.2,86,100,0.67,RU,1610060936
Dire Dawa,9.5931,41.8661,60.12,45,0,2.1,ET,1610060936
Mangai,-4.05,19.5333,67.69,98,100,1.86,CD,1610060936
Trat,12.5,102.5,74.93,71,1,10.56,TH,1610060936
Tilichiki,60.4667,166.1,-10.77,89,64,9.69,RU,1610060936
Muriti,-1.9833,32.9167,75.69,63,0,6.73,TZ,1610060936
Shamary,57.3434,58.2199,14.34,94,100,6.78,RU,1610060936
Chipata,-13.6333,32.65,66.56,91,89,3.29,ZM,1610060937
Yumen,40.2833,97.2,1.53,76,0,11.32,CN,1610060937
Ojinaga,29.5667,-104.4167,63.0,27,1,3.44,MX,1610060937
Tazovsky,67.4667,78.7,-7.13,89,77,19.37,RU,1610060937
Aklavik,68.2191,-135.0107,-11.2,77,20,5.75,CA,1610060937
Caravelas,-17.7125,-39.2481,76.39,81,44,7.47,BR,1610060937
Etchoropo,26.7667,-109.6667,74.59,33,1,13.67,MX,1610060937
Acaraú,-2.8856,-40.12,80.4,78,3,14.5,BR,1610060938
Port Augusta,-32.5,137.7667,82.99,78,0,14.97,AU,1610060938
Fevik,58.3794,8.6766,26.01,68,90,5.75,NO,1610060938
Hede,33.7681,120.2517,13.35,59,0,8.1,CN,1610060938
Berlevåg,70.8578,29.0864,23.23,91,0,27.0,NO,1610060938
Sharjah city,25.3573,55.4033,60.8,47,0,4.61,AE,1610060726
Tamworth,52.634,-1.6959,30.99,95,95,1.01,GB,1610060938
Jimeta,9.2833,12.4667,75.96,18,60,2.1,NG,1610060939
Puerto Baquerizo Moreno,-0.9,-89.6,78.8,83,75,12.66,EC,1610060939
Marawi,7.9986,124.2928,73.99,92,100,5.01,PH,1610060939
Raja,8.4596,25.678,69.44,25,1,5.01,SS,1610060939
Ko Samui,9.5357,99.9357,81.23,74,68,12.12,TH,1610060939
Nelson Bay,-32.7167,152.15,69.8,64,75,21.85,AU,1610060939
Wad Medani,14.4012,33.5199,72.72,38,0,13.18,SD,1610060939
Dongsheng,39.8161,109.9776,-2.61,69,0,19.42,CN,1610060939
Miguel Hidalgo,19.4225,-99.2028,68.0,32,75,4.61,MX,1610060826
Atlantic Beach,30.3344,-81.3987,66.2,77,90,11.5,US,1610060940
Zachary,30.6485,-91.1565,50.0,71,90,14.97,US,1610060940
Austell,33.8126,-84.6344,37.99,93,90,8.05,US,1610060940
Examilia,37.9,22.9333,52.0,70,35,1.01,GR,1610060940
Turukhansk,65.8167,87.9833,-19.01,88,40,12.68,RU,1610060940
Geraldton,-28.7667,114.6,86.0,16,27,11.5,AU,1610060645
Meridian,43.6121,-116.3915,43.0,100,40,2.93,US,1610060940
